{"index":"1","trans_date_trans_time":"2023-07-21 14:25:00","Client Name":"Alice Johnson","transaction type":"grocery_pos","amt":"45.67","city":"Austin","state":"TX","lat":"30.2672","long":"-97.7431","city_pop":"964254","job":"Engineer","dob":"1989-03-12","trans_num":"TST0001","latitude":"30.2690","longitude":"-97.7400","is_fraud":"0"}
{"index":"2","trans_date_trans_time":"07/22/2023 08:10:00","Client Name":"Bob Lee","transaction type":"shopping_pos","amt":120.5,"city":"Denver","state":"CO","lat":39.7392,"long":-104.9903,"city_pop":715522,"job":"Analyst","dob":"1990-07-01","trans_num":"TST0002","latitude":39.7400,"longitude":-104.9850,"is_fraud":0}
{"index":"3","trans_date_trans_time":"2023/07/23 19:45","Client Name":"Carol King","transaction type":"gas_net","amt":"N/A","city":"Phoenix","state":"AZ","lat":33.4484,"long":-112.0740,"city_pop":1608139,"job":"Teacher","dob":"1984-11-05","trans_num":"TST0003","latitude":33.4500,"longitude":-112.0700,"is_fraud":0}
{"index":"4","trans_date_trans_time":"23-07-2023 21:15","Client Name":"David Park","transaction type":"misc_pos","amt":15.0,"city":"Seattle","state":"WA","lat":"47.6062","long":"-122.3321","city_pop":737015,"job":"Designer","dob":"1992-02-20","trans_num":"TST0004","latitude":"47.6070","longitude":"-122.3300","is_fraud":"false"}
{"index":"5","trans_date_trans_time":"2023-07-24 06:05:00","Client Name":"Eve Stone","transaction type":"grocery_pos","amt":88.2,"city":"Miami","state":"FL","lat":25.7617,"long":-80.1918,"city_pop":478251,"job":"Nurse","dob":"1987-08-18","trans_num":"TST0005","latitude":25.7625,"longitude":-80.1900,"is_fraud":1}
{"index":"6","trans_date_trans_time":"7/24/2023","Client Name":"Frank Wu","transaction type":"shopping_net","amt":"220.10","city":"Chicago","state":"IL","lat":"41.8781","long":"-87.6298","city_pop":"CHICAGO","job":"Consultant","dob":"1985-01-30","trans_num":"TST0006","latitude":41.8800,"longitude":-87.6200,"is_fraud":0}
{"index":"7","trans_date_trans_time":"2023-07-25T13:30:00","Client Name":"Grace Kim","transaction type":"gas_net","amt":52.0,"city":"Los Angeles","state":"CA","lat":34.0522,"long":-118.2437,"city_pop":3898747,"job":"Manager","dob":"1993-05-22","trans_num":"TST0007","latitude":34.0550,"longitude":-118.2400,"is_fraud":0}
{"index":"8","trans_date_trans_time":"2023-07-26 10:00:00","Client Name":"Henry O'Neil","transaction type":"grocery_pos","amt":"-15.75","city":"Boston","state":"MA","lat":"not_a_number","long":"-71.0589","city_pop":675647,"job":"Sales","dob":"1981-12-02","trans_num":"TST0008","latitude":42.3610,"longitude":-71.0570,"is_fraud":"1"}
{"index":"9","trans_date_trans_time":"2023-07-26 10:05:00","Client Name":"Ivy Chen","transaction type":"shopping_pos","amt":null,"city":"Portland","state":"OR","lat":45.5152,"long":-122.6784,"city_pop":652503,"job":"Architect","dob":"1991-04-11","trans_num":"TST0009","latitude":45.5200,"longitude":-122.6700,"is_fraud":0}
{"index":"10","trans_date_trans_time":"2023-07-26 10:10:00","Client Name":"John Doe","transaction type":"misc_pos","amt":64.3,"city":"San Jose","state":"CA","lat":37.3382,"long":-121.8863,"city_pop":1013240,"job":"DevOps","dob":"1990-10-10","trans_num":"TST0010","latitude":"thirty seven","longitude":"-121.8800","is_fraud":0}
{"index":"11","trans_date_trans_time":"2023/07/26 10:15:00","Client Name":"Kate Bell","transaction type":"gas_net","amt":"75","city":"New York","state":"NY","lat":40.7128,"long":-74.0060,"city_pop":8804190,"job":"Marketer","dob":"1979-09-09","trans_num":"TST0011","latitude":40.7150,"longitude":-74.0050,"is_fraud":"yes"}
{"index":"12","trans_date_trans_time":"26-07-2023 10:20","Client Name":"Liam Patel","transaction type":"grocery_pos","amt":19.99,"city":"Dallas","state":"TX","lat":32.7767,"long":-96.7970,"city_pop":1304379,"job":"Support","dob":"1986-06-06","trans_num":"TST0012","latitude":32.7800,"longitude":-96.7900,"is_fraud":0,"extra_field":"ignored"}
{"index":"13","trans_date_trans_time":"2023-07-26 10:25:00","Client Name":"(missing name)","transaction type":"shopping_pos","amt":"100.00","city":"-","state":"-","lat":"","long":"","city_pop":"","job":"","dob":"","trans_num":"TST0013","latitude":"","longitude":"","is_fraud":"0"}
{"index":"14","trans_date_trans_time":"2023-07-26 10:30:00","Client Name":"Nina Ray","transaction type":"grocery_pos","amt":"free","city":"Atlanta","state":"GA","lat":33.7490,"long":-84.3880,"city_pop":498715,"job":"HR","dob":"1994-03-03","trans_num":"TST0014","latitude":33.7500,"longitude":-84.3800,"is_fraud":0}
{"index":"15","trans_date_trans_time":"2023-07-26 10:35:00","Client Name":"Oscar Diaz","transaction type":"misc_pos","amt":34.5,"city":"Phoenix","state":"AZ","lat":33.4484,"long":-112.0740,"city_pop":1608139,"job":"QA","dob":"1992-11-11","trans_num":"TST0015","latitude":33.4500,"longitude":-112.0700,"is_fraud":0}
